{
  "_id": "Alberta",
  "MONGO Alberta": [
    {
      "parkOrigin": "Alberta",
      "name": "Park Lake Provincial Park",
      "camping": "yes",
      "website": "https://albertaparks.ca/parks/south/park-lake-pp/",
      "hiking": "yes",
      "swimming": "yes",
      "dog": "yes",
      "introduction": "Not available at this moment.",
      "coordinates": "{lat: 50.45367264664897,  lng: -112.98648750447067}"
    },
    {
      "parkOrigin": "Alberta",
      "name": "Castle Provincial Park",
      "camping": "yes",
      "website": "https://albertaparks.ca/parks/south/castle-pp/",
      "hiking": "yes",
      "swimming": "no",
      "dog": "yes",
      "introduction": "Not available at this moment.",
      "coordinates": "{lat: 49.91906096109653,  lang: -114.34350887302814}"
    },
    {
      "parkOrigin": "Alberta",
      "name": "Cypress Hills Provincial Park",
      "camping": "yes",
      "website": "https://albertaparks.ca/parks/south/cypress-hills-pp/",
      "hiking": "yes",
      "swimming": "yes",
      "dog": "yes",
      "introduction": "Not available at this moment.",
      "coordinates": "{lat: 50.20118148444292,  lng: -110.3339342561186}"
    },
    {
      "parkOrigin": "Alberta",
      "name": "Chain Lakes Provincial Recreation Area",
      "camping": "yes",
      "website": "https://albertaparks.ca/parks/northeast/chain-lakes-pra/",
      "hiking": "no",
      "swimming": "yes",
      "dog": "yes",
      "introduction": "Not available at this moment.",
      "coordinates": "{lat: 55.39601041106085,  lng: -113.3883311757196}"
    },
    {
      "parkOrigin": "Alberta",
      "name": "Burnt Timber Provincial Recreation Area",
      "camping": "yes",
      "website": "https://albertaparks.ca/parks/kananaskis/burnt-timber-pra/",
      "hiking": "yes",
      "swimming": "yes",
      "dog": "yes",
      "introduction": "Not available at this moment.",
      "coordinates": "{lat: 52.100571905341795,  lng: -115.25432194199583}"
    },
    {
      "parkOrigin": "Alberta",
      "name": "Rock Lake Provincial Park",
      "camping": "yes",
      "website": "https://albertaparks.ca/parks/central/rock-lake-pp/",
      "hiking": "yes",
      "swimming": "yes",
      "dog": "yes",
      "introduction": "Not available at this moment.",
      "coordinates": "{lat: 54.045409698412186, lng: -118.23339921040171}"
    },
    {
      "parkOrigin": "Alberta",
      "name": "Pembina River Provincial Park",
      "camping": "yes",
      "website": "https://albertaparks.ca/parks/central/pembina-river-pp/",
      "hiking": "yes",
      "swimming": "yes",
      "dog": "yes",
      "introduction": "Not available at this moment.",
      "coordinates": "{lat: 54.148490474717256,  lng: -114.94369268338949}"
    },
    {
      "parkOrigin": "Alberta",
      "name": "Garner Lake Provincial Park",
      "camping": "yes",
      "website": "https://albertaparks.ca/parks/northeast/garner-lake-pp/",
      "hiking": "yes",
      "swimming": "yes",
      "dog": "yes",
      "introduction": "Not available at this moment.",
      "coordinates": "{lat: 54.68473686612658,  lng: -111.68159258446491}"
    },
    {
      "parkOrigin": "Alberta",
      "name": "Cross Lake Provincial Park",
      "camping": "yes",
      "website": "https://albertaparks.ca/parks/northeast/cross-lake-pp/",
      "hiking": "yes",
      "swimming": "yes",
      "dog": "yes",
      "introduction": "Not available at this moment.",
      "coordinates": "{lat: 55.19027918565899,  lng: -113.79525173426474}"
    },
    {
      "parkOrigin": "Alberta",
      "name": "Lesser Slave Lake Provincial Park",
      "camping": "yes",
      "website": "https://albertaparks.ca/parks/northwest/lesser-slave-lake-pp/",
      "hiking": "yes",
      "swimming": "yes",
      "dog": "yes",
      "introduction": "Not available at this moment.",
      "coordinates": "{lat: 56.07001422468433,  lng: -114.98503123341823}"
    },
    {
      "parkOrigin": "Alberta",
      "name": "Twin Lakes Provincial Recreation Area",
      "camping": "yes",
      "website": "https://albertaparks.ca/parks/northwest/twin-lakes-pra/",
      "hiking": "yes",
      "swimming": "yes",
      "dog": "yes",
      "introduction": "Not available at this moment.",
      "coordinates": "{lat: 57.94960193343479,  lng: -117.59166390799093}"
    }
  ]
}
